[
    { "name": "Afghanistan", "lat": 34.52813, "lng": 69.17233, "code": "AF" },
    { "name": "Albania", "lat": 41.3275, "lng": 19.8189, "code": "AL" },
    { "name": "Algeria", "lat": 36.7538, "lng": 3.0588, "code": "DZ" },
    { "name": "Andorra", "lat": 42.50779, "lng": 1.52109, "code": "AD" },
    { "name": "Angola", "lat": -8.839, "lng": 13.2894, "code": "AO" },
    {
        "name": "Antigua and Barbuda",
        "lat": 17.1274,
        "lng": -61.8468,
        "code": "AG"
    },
    { "name": "Argentina", "lat": -34.6037, "lng": -58.3816, "code": "AR" },
    { "name": "Armenia", "lat": 40.1792, "lng": 44.4991, "code": "AM" },
    { "name": "Australia", "lat": -35.2809, "lng": 149.13, "code": "AU" },
    { "name": "Austria", "lat": 48.2082, "lng": 16.3738, "code": "AT" },
    { "name": "Azerbaijan", "lat": 40.3777, "lng": 49.892, "code": "AZ" },
    { "name": "Bahamas", "lat": 25.0643, "lng": -77.345, "code": "BS" },
    { "name": "Bahrain", "lat": 26.2285, "lng": 50.5861, "code": "BH" },
    { "name": "Bangladesh", "lat": 23.8103, "lng": 90.4125, "code": "BD" },
    { "name": "Barbados", "lat": 13.1, "lng": -59.6167, "code": "BB" },
    { "name": "Belarus", "lat": 53.9, "lng": 27.5667, "code": "BY" },
    { "name": "Belgium", "lat": 50.8503, "lng": 4.3517, "code": "BE" },
    { "name": "Belize", "lat": 17.5046, "lng": -88.1962, "code": "BZ" },
    { "name": "Benin", "lat": 6.483, "lng": 2.616, "code": "BJ" },
    { "name": "Bhutan", "lat": 27.4728, "lng": 89.639, "code": "BT" },
    { "name": "Bolivia", "lat": -16.4897, "lng": -68.1193, "code": "BO" },
    {
        "name": "Bosnia and Herzegovina",
        "lat": 43.8486,
        "lng": 18.3564,
        "code": "BA"
    },
    { "name": "Botswana", "lat": -24.6545, "lng": 25.9086, "code": "BW" },
    { "name": "Brazil", "lat": -15.7939, "lng": -47.8828, "code": "BR" },
    { "name": "Brunei", "lat": 4.8903, "lng": 114.942, "code": "BN" },
    { "name": "Bulgaria", "lat": 42.6977, "lng": 23.3219, "code": "BG" },
    { "name": "Burkina Faso", "lat": 12.3657, "lng": -1.5333, "code": "BF" },
    { "name": "Burundi", "lat": -3.3818, "lng": 29.3644, "code": "BI" },
    { "name": "Cambodia", "lat": 11.5625, "lng": 104.916, "code": "KH" },
    { "name": "Cameroon", "lat": 3.848, "lng": 11.5021, "code": "CM" },
    { "name": "Canada", "lat": 45.4215, "lng": -75.6972, "code": "CA" },
    { "name": "Chile", "lat": -33.4378, "lng": -70.6505, "code": "CL" },
    { "name": "China", "lat": 39.9042, "lng": 116.4074, "code": "CN" },
    { "name": "Colombia", "lat": 4.711, "lng": -74.0721, "code": "CO" },
    { "name": "Costa Rica", "lat": 9.9333, "lng": -84.0833, "code": "CR" },
    { "name": "Croatia", "lat": 45.815, "lng": 15.9785, "code": "HR" },
    { "name": "Cuba", "lat": 23.1136, "lng": -82.3666, "code": "CU" },
    { "name": "Czechia", "lat": 50.088, "lng": 14.4208, "code": "CZ" },
    { "name": "Denmark", "lat": 55.6761, "lng": 12.5683, "code": "DK" },
    { "name": "Egypt", "lat": 30.0444, "lng": 31.2357, "code": "EG" },
    { "name": "France", "lat": 48.8566, "lng": 2.3522, "code": "FR" },
    { "name": "Germany", "lat": 52.52, "lng": 13.405, "code": "DE" },
    { "name": "Greece", "lat": 37.9838, "lng": 23.7275, "code": "GR" },
    { "name": "India", "lat": 28.6139, "lng": 77.209, "code": "IN" },
    { "name": "Indonesia", "lat": -6.2088, "lng": 106.8456, "code": "ID" },
    { "name": "Iran", "lat": 35.6892, "lng": 51.389, "code": "IR" },
    { "name": "Iraq", "lat": 33.3152, "lng": 44.3661, "code": "IQ" },
    { "name": "Italy", "lat": 41.9028, "lng": 12.4964, "code": "IT" },
    { "name": "Japan", "lat": 35.6895, "lng": 139.6917, "code": "JP" },
    { "name": "South Korea", "lat": 37.5665, "lng": 126.978, "code": "KR" },
    { "name": "Thailand", "lat": 13.7563, "lng": 100.5018, "code": "TH" },
    { "name": "United Kingdom", "lat": 51.5074, "lng": -0.1278, "code": "GB" },
    { "name": "United States", "lat": 38.9072, "lng": -77.0369, "code": "US" },
    { "name": "Vietnam", "lat": 21.0278, "lng": 105.8342, "code": "VN" }
]
